[
  {
    "origin": {
      "latLng": {
        "lat": "37.7749295",
        "lng": "-122.4194155"
      },
      "formatted_address": "San Francisco, CA, USA",
      "country": "USA",
      "place_id": "ChIJIQBpAG2ahYAR_6128GcTUEo",
      "status": "OK",
      "ok": true,
      "impossible": false
    },
    "startDate": "2017-01-23",
    "destinations": [
      {
        "location": {
          "latLng": {
            "lat": "38.9071923",
            "lng": "-77.03687069999999"
          },
          "formatted_address": "Washington, DC, USA",
          "country": "USA",
          "place_id": "ChIJW-T2Wt7Gt4kRKl2I1CJFUsI",
          "status": "OK",
          "ok": true,
          "impossible": false
        },
        "numDays": 5
      }
    ],
    "budget": 1000,
    "numPeople": 3
  },
  {
    "origin": {
      "latLng": {
        "lat": "35.6894875",
        "lng": "139.6917064"
      },
      "formatted_address": "Tokyo, Japan",
      "country": "Japan",
      "place_id": "ChIJ51cu8IcbXWARiRtXIothAS4",
      "status": "OK",
      "ok": true,
      "impossible": false
    },
    "startDate": "2017-01-23",
    "destinations": [
      {
        "location": {
          "latLng": {
            "lat": "40.6781784",
            "lng": "-73.94415789999999"
          },
          "formatted_address": "Brooklyn, NY, USA",
          "country": "USA",
          "place_id": "ChIJCSF8lBZEwokRhngABHRcdoI",
          "status": "OK",
          "ok": true,
          "impossible": false
        },
        "numDays": 5
      }
    ],
    "budget": 5000,
    "numPeople": 5
  },
  {
    "origin": {
      "latLng": {
        "lat": "40.67142399999999",
        "lng": "-73.98621399999999"
      },
      "formatted_address": "296 6th St, Brooklyn, NY 11215, USA",
      "country": "USA",
      "place_id": "ChIJX4VAKvxawokRo_eOlBzI5CI",
      "status": "OK",
      "ok": true,
      "impossible": false
    },
    "startDate": "2017-02-01",
    "destinations": [
      {
        "location": {
          "latLng": {
            "lat": "35.6894875",
            "lng": "139.6917064"
          },
          "formatted_address": "Tokyo, Japan",
          "country": "Japan",
          "place_id": "ChIJ51cu8IcbXWARiRtXIothAS4",
          "status": "OK",
          "ok": true,
          "impossible": false
        },
        "numDays": 5
      },
      {
        "location": {
          "latLng": {
            "lat": "51.5073509",
            "lng": "-0.1277583"
          },
          "formatted_address": "London, UK",
          "country": "UK",
          "place_id": "ChIJdd4hrwug2EcRmSrV3Vo6llI",
          "status": "OK",
          "ok": true,
          "impossible": false
        },
        "numDays": 5
      },
      {
        "location": {
          "latLng": {
            "lat": "37.7749295",
            "lng": "-122.4194155"
          },
          "formatted_address": "San Francisco, CA, USA",
          "country": "USA",
          "place_id": "ChIJIQBpAG2ahYAR_6128GcTUEo",
          "status": "OK",
          "ok": true,
          "impossible": false
        },
        "numDays": 5
      },
      {
        "location": {
          "latLng": {
            "lat": "31.230416",
            "lng": "121.473701"
          },
          "formatted_address": "Shanghai, China",
          "country": "China",
          "place_id": "ChIJMzz1sUBwsjURoWTDI5QSlQI",
          "status": "OK",
          "ok": true,
          "impossible": false
        },
        "numDays": 5
      },
      {
        "location": {
          "latLng": {
            "lat": "55.755826",
            "lng": "37.6173"
          },
          "formatted_address": "Moscow, Russia",
          "country": "Russia",
          "place_id": "ChIJybDUc_xKtUYRTM9XV8zWRD0",
          "status": "OK",
          "ok": true,
          "impossible": false
        },
        "numDays": 5
      }
    ],
    "budget": 50000,
    "numPeople": 5
  },
  {
    "origin": {
      "latLng": {
        "lat": "41.8781136",
        "lng": "-87.6297982"
      },
      "formatted_address": "Chicago, IL, USA",
      "country": "USA",
      "place_id": "ChIJ7cv00DwsDogRAMDACa2m4K8",
      "status": "OK",
      "ok": true,
      "impossible": false
    },
    "startDate": "2017-01-31",
    "destinations": [
      {
        "location": {
          "latLng": {
            "lat": "37.7749295",
            "lng": "-122.4194155"
          },
          "formatted_address": "San Francisco, CA, USA",
          "country": "USA",
          "place_id": "ChIJIQBpAG2ahYAR_6128GcTUEo",
          "status": "OK",
          "ok": true,
          "impossible": false
        },
        "numDays": 2
      },
      {
        "location": {
          "latLng": {
            "lat": "34.0522342",
            "lng": "-118.2436849"
          },
          "formatted_address": "Los Angeles, CA, USA",
          "country": "USA",
          "place_id": "ChIJE9on3F3HwoAR9AhGJW_fL-I",
          "status": "OK",
          "ok": true,
          "impossible": false
        },
        "numDays": 2
      }
    ],
    "budget": 2000,
    "numPeople": 3
  },
  {
    "origin": {
      "latLng": {
        "lat": "41.8781136",
        "lng": "-87.6297982"
      },
      "formatted_address": "Chicago, IL, USA",
      "country": "USA",
      "place_id": "ChIJ7cv00DwsDogRAMDACa2m4K8",
      "status": "OK",
      "ok": true,
      "impossible": false
    },
    "startDate": "2017-01-30",
    "destinations": [
      {
        "location": {
          "latLng": {
            "lat": "37.7749295",
            "lng": "-122.4194155"
          },
          "formatted_address": "San Francisco, CA, USA",
          "country": "USA",
          "place_id": "ChIJIQBpAG2ahYAR_6128GcTUEo",
          "status": "OK",
          "ok": true,
          "impossible": false
        },
        "numDays": 2
      }
    ],
    "budget": 1000,
    "numPeople": 3
  },
  {
    "origin": {
      "latLng": {
        "lat": "41.8781136",
        "lng": "-87.6297982"
      },
      "formatted_address": "Chicago, IL, USA",
      "country": "USA",
      "place_id": "ChIJ7cv00DwsDogRAMDACa2m4K8",
      "status": "OK",
      "ok": true,
      "impossible": false
    },
    "startDate": "2017-01-21",
    "destinations": [
      {
        "location": {
          "latLng": {
            "lat": "37.7749295",
            "lng": "-122.4194155"
          },
          "formatted_address": "San Francisco, CA, USA",
          "country": "USA",
          "place_id": "ChIJIQBpAG2ahYAR_6128GcTUEo",
          "status": "OK",
          "ok": true,
          "impossible": false
        },
        "numDays": 2
      }
    ],
    "budget": 500,
    "numPeople": 3
  },
  {
    "origin": {
      "latLng": {
        "lat": "40.6781784",
        "lng": "-73.94415789999999"
      },
      "formatted_address": "Brooklyn, NY, USA",
      "country": "USA",
      "place_id": "ChIJCSF8lBZEwokRhngABHRcdoI",
      "status": "OK",
      "ok": true,
      "impossible": false
    },
    "startDate": "2017-01-23",
    "destinations": [
      {
        "location": {
          "latLng": {
            "lat": "41.8781136",
            "lng": "-87.6297982"
          },
          "formatted_address": "Chicago, IL, USA",
          "country": "USA",
          "place_id": "ChIJ7cv00DwsDogRAMDACa2m4K8",
          "status": "OK",
          "ok": true,
          "impossible": false
        },
        "numDays": 2
      }
    ],
    "budget": 500,
    "numPeople": 3
  }
]